City_ID,City,Lat,Lng,Max Temp,Humidity,Cloudiness,Wind Speed,Country,Date
0,punta arenas,-53.15,-70.9167,6.06,56,75,3.6,CL,1680109784
1,longyearbyen,78.2186,15.6401,-12.09,79,40,1.03,SJ,1680109785
2,faanui,-16.4833,-151.75,27.78,74,86,4.23,PF,1680109785
3,mataura,-46.1927,168.8643,5.27,84,36,1.77,NZ,1680109785
4,the valley,18.217,-63.0578,27.08,69,20,6.17,AI,1680109785
5,lompoc,34.6391,-120.4579,13.25,81,25,5.36,US,1680109770
6,laguna,38.421,-121.4238,9.86,85,100,6.69,US,1680109786
7,martapura,-3.4167,114.85,26.05,100,100,0.51,ID,1680109786
8,chuy,-33.6971,-53.4616,29.11,40,0,4.17,UY,1680109786
9,codrington,-38.2667,141.9667,12.23,83,79,3.47,AU,1680109786
10,empalme,27.9667,-110.8167,25.75,27,0,0.0,MX,1680109568
11,mahebourg,-20.4081,57.7,25.7,75,80,6.31,MU,1680109786
12,hermanus,-34.4187,19.2345,16.0,73,88,1.85,ZA,1680109787
13,oktyabrskoye,43.0645,44.7417,9.08,93,100,3.0,RU,1680109787
14,jamestown,42.097,-79.2353,8.9,50,75,9.83,US,1680109787
15,bucak,37.4592,30.595,1.29,65,36,7.45,TR,1680109787
16,ushuaia,-54.8,-68.3,5.81,61,40,8.75,AR,1680109788
17,ahipara,-35.1667,173.1667,10.51,76,32,2.05,NZ,1680109788
18,norsup,-16.0667,167.3833,25.66,82,100,1.37,VU,1680109788
19,san vicente,-26.6167,-54.1333,30.93,44,26,1.89,AR,1680109788
20,omboue,-1.5746,9.2618,25.75,81,98,2.93,GA,1680109788
21,mar del plata,-38.0023,-57.5575,19.41,53,40,5.66,AR,1680109789
22,hilo,19.7297,-155.09,22.93,90,40,3.09,US,1680109525
23,norfolk,42.1668,-71.2495,11.48,38,0,0.89,US,1680109789
24,acapulco,16.8634,-99.8901,29.9,54,0,3.6,MX,1680109789
25,tasiilaq,65.6145,-37.6368,-5.91,68,24,1.0,GL,1680109789
26,sao jose da coroa grande,-8.8978,-35.1478,27.94,72,75,5.2,BR,1680109790
27,kodiak,57.79,-152.4072,2.73,75,100,1.54,US,1680109728
28,vangaindrano,-23.35,47.6,22.88,77,61,2.22,MG,1680109790
29,nemuro,43.3236,145.575,1.7,90,14,2.84,JP,1680109790
30,upernavik,72.7868,-56.1549,-23.44,78,15,3.13,GL,1680109791
31,katsuura,35.1333,140.3,12.24,81,99,1.84,JP,1680109791
32,rikitea,-23.1203,-134.9692,26.39,72,89,2.05,PF,1680109791
33,bileca,42.8719,18.4297,6.94,62,33,1.06,BA,1680109791
34,cidreira,-30.1811,-50.2056,29.57,60,0,1.16,BR,1680109791
35,pinheiro,-2.5214,-45.0825,26.16,92,93,1.2,BR,1680109792
36,bredasdorp,-34.5322,20.0403,15.96,64,80,4.2,ZA,1680109792
37,turukhansk,65.8167,87.9833,-20.28,96,100,5.5,RU,1680109792
38,brae,60.3964,-1.353,5.9,90,100,11.86,GB,1680109605
39,pangnirtung,66.1451,-65.7125,-12.05,95,98,1.99,CA,1680109793
40,dikson,73.5069,80.5464,-19.91,99,100,2.66,RU,1680109793
41,port alfred,-33.5906,26.891,17.32,65,88,4.47,ZA,1680109460
42,flin flon,54.7682,-101.865,-5.27,89,96,3.22,CA,1680109793
43,boone,39.0334,-92.3335,12.59,53,80,1.74,US,1680109319
44,beaufort,5.3473,115.7455,24.18,94,100,1.39,MY,1680109793
45,kapaa,22.0752,-159.319,24.18,90,75,5.14,US,1680109793
46,busselton,-33.65,115.3333,17.74,58,80,6.77,AU,1680109794
47,san patricio,28.017,-97.5169,19.94,59,99,4.98,US,1680109563
48,ancud,-41.8697,-73.8203,11.66,59,79,4.14,CL,1680109794
49,hirara,24.8,125.2833,22.63,84,100,9.27,JP,1680109794
50,samarai,-10.6167,150.6667,27.65,76,17,2.43,PG,1680109794
51,ontario,34.0633,-117.6509,10.76,92,100,5.66,US,1680109225
52,beringovskiy,63.05,179.3167,-6.05,96,100,4.47,RU,1680109795
53,atuona,-9.8,-139.0333,27.05,75,64,6.21,PF,1680109795
54,castro,-24.7911,-50.0119,26.51,55,76,2.55,BR,1680109795
55,champerico,14.3,-91.9167,30.43,63,38,4.1,GT,1680109795
56,new norfolk,-42.7826,147.0587,13.72,78,100,1.79,AU,1680109796
57,la asuncion,11.0333,-63.8628,26.42,70,46,6.99,VE,1680109796
58,bluff,-46.6,168.3333,5.45,72,63,6.8,NZ,1680109796
59,cockburn town,21.4612,-71.1419,25.21,72,89,6.27,TC,1680109796
60,hovd,48.0056,91.6419,4.42,34,85,1.31,MN,1680109796
61,ciudad bolivar,8.1222,-63.5497,33.98,33,96,3.85,VE,1680109796
62,georgetown,5.4112,100.3354,27.96,83,20,1.54,MY,1680109705
63,richards bay,-28.783,32.0377,21.16,87,99,4.95,ZA,1680109797
64,kaitangata,-46.2817,169.8464,5.04,81,33,2.71,NZ,1680109797
65,albany,42.6001,-73.9662,11.13,38,40,0.89,US,1680109797
66,thompson,55.7435,-97.8558,-8.08,87,100,3.47,CA,1680109775
67,chipata,-13.6333,32.65,18.3,95,95,1.86,ZM,1680109798
68,kulhudhuffushi,6.6221,73.07,28.76,74,98,4.36,MV,1680109798
69,gainesville,29.6516,-82.3248,22.82,54,0,4.12,US,1680109626
70,haines junction,60.7522,-137.5108,-7.62,92,100,0.66,CA,1680109798
71,ottumwa,41.02,-92.4113,2.3,49,100,2.24,US,1680109140
72,avarua,-21.2078,-159.775,24.03,94,100,0.51,CK,1680109799
73,sandviken,60.6167,16.7667,-2.16,38,83,1.81,SE,1680109799
74,lebu,-37.6167,-73.65,14.28,59,13,7.14,CL,1680109799
75,nikolskoye,59.7035,30.7861,-2.06,95,100,4.08,RU,1680109799
76,geraldton,-28.7667,114.6,23.23,78,100,10.29,AU,1680109799
77,college,64.8569,-147.8028,-5.44,74,75,2.57,US,1680109601
78,cayenne,4.9333,-52.3333,29.02,70,100,6.17,GF,1680109616
79,cherskiy,68.75,161.3,-28.6,100,80,1.23,RU,1680109800
80,lorengau,-2.0226,147.2712,26.99,76,64,1.42,PG,1680109800
81,leningradskiy,69.3833,178.4167,-10.1,84,100,2.21,RU,1680109801
82,tiksi,71.6872,128.8694,-29.24,100,91,3.07,RU,1680109801
83,qandala,11.472,49.8728,28.39,75,42,2.13,SO,1680109801
84,shingu,33.7333,135.9833,8.97,66,93,2.62,JP,1680109802
85,rincon,32.296,-81.2354,19.39,39,75,5.66,US,1680109803
86,esperance,-33.8667,121.9,15.66,83,36,4.55,AU,1680109803
87,kavieng,-2.5744,150.7967,27.31,73,97,0.63,PG,1680109804
88,cabo san lucas,22.8909,-109.9124,27.01,59,100,0.45,MX,1680109052
89,bethel,41.3712,-73.414,12.02,35,0,2.06,US,1680109712
90,gumdag,39.2061,54.5906,23.0,26,0,2.66,TM,1680109806
91,hamilton,39.1834,-84.5333,12.89,48,40,6.17,US,1680109701
92,camacha,33.0833,-16.3333,22.68,60,0,2.57,PT,1680109807
93,puerto ayora,-0.7393,-90.3518,30.98,84,57,4.02,EC,1680109807
94,jining,35.405,116.5814,10.54,73,95,3.3,CN,1680109808
95,opuwo,-18.0607,13.84,23.19,65,100,1.54,,1680109809
96,victoria,22.2855,114.1577,22.33,88,98,2.68,HK,1680109791
97,aklavik,68.2191,-135.0107,-16.1,88,7,3.76,CA,1680109809
98,lambarene,-0.7001,10.2406,24.1,90,100,1.05,GA,1680109810
99,ranong,9.9658,98.6348,25.3,87,42,1.73,TH,1680109810
100,tura,25.5198,90.2201,20.63,75,6,2.54,IN,1680109662
101,palmer,42.1584,-72.3287,11.54,30,16,1.34,US,1680109811
102,kharan,28.5833,65.4167,19.52,49,44,4.19,PK,1680109697
103,kidodi,-7.6036,37.0044,23.79,88,72,0.91,TZ,1680109812
104,niort,46.3333,-0.3333,20.09,70,100,4.23,FR,1680109813
105,torbay,47.6666,-52.7314,2.44,87,99,4.02,CA,1680109813
106,mana,5.6592,-53.7767,27.72,70,45,5.29,GF,1680109813
107,angoche,-16.2325,39.9086,25.21,75,78,3.47,MZ,1680109814
108,kayerkan,69.3497,87.7602,-30.12,100,88,0.68,RU,1680109814
109,hofn,64.2539,-15.2082,4.01,81,100,9.77,IS,1680109815
110,hobart,-42.8794,147.3294,13.92,81,100,5.66,AU,1680109815
111,husavik,66.0449,-17.3389,2.54,81,100,9.4,IS,1680109772
112,provideniya,64.3833,-173.3,-7.16,92,100,7.04,RU,1680109816
113,diego de almagro,-26.3667,-70.05,28.26,25,0,3.69,CL,1680109594
114,aykhal,66.0,111.5,-19.5,99,98,2.45,RU,1680109817
115,westerland,54.9079,8.3033,7.23,100,100,4.63,DE,1680109817
116,chanderi,24.7167,78.1333,28.95,19,98,1.5,IN,1680109818
117,fortuna,40.5982,-124.1573,11.19,72,100,2.68,US,1680109818
118,khatanga,71.9667,102.5,-30.47,100,99,0.78,RU,1680109818
119,talnakh,69.4865,88.3972,-28.77,100,65,3.07,RU,1680109819
120,mayo,38.8876,-76.5119,15.19,44,0,5.14,US,1680109819
121,arlit,18.7369,7.3853,32.98,5,7,4.55,NE,1680109784
122,east london,-33.0153,27.9116,19.24,62,89,9.37,ZA,1680109747
123,bengkulu,-3.8004,102.2655,24.67,87,98,2.16,ID,1680109820
124,tuatapere,-46.1333,167.6833,1.95,91,40,2.24,NZ,1680109820
125,padang,-0.9492,100.3543,27.03,88,100,1.37,ID,1680109821
126,hudson bay,52.85,-102.3842,-4.68,84,96,4.85,CA,1680109821
127,itoman,26.1247,127.6694,19.21,88,75,6.69,JP,1680109821
128,santa lucia,27.9117,-15.5407,24.62,20,0,10.29,ES,1680109821
129,salalah,17.0151,54.0924,28.05,74,40,2.06,OM,1680109684
130,emiliano zapata,18.8333,-99.1833,28.34,32,0,1.54,MX,1680109822
131,butaritari,3.0707,172.7902,26.92,83,88,6.33,KI,1680109822
132,bahia blanca,-38.7196,-62.2724,18.23,19,0,3.58,AR,1680109822
133,ribeira grande,38.5167,-28.7,16.54,82,40,9.83,PT,1680109823
134,vardo,70.3705,31.1107,-1.01,93,100,11.32,NO,1680109823
135,yenagoa,4.9247,6.2642,27.95,77,89,3.56,NG,1680109824
136,ziro,27.6333,93.8333,7.44,89,61,0.94,IN,1680109319
137,gizo,-8.103,156.8419,27.13,80,100,1.5,SB,1680109824
138,sisimiut,66.9395,-53.6735,-9.43,64,23,2.41,GL,1680109825
139,sabha,27.0377,14.4283,24.81,20,0,6.7,LY,1680109826
140,tuktoyaktuk,69.4541,-133.0374,-22.99,100,81,3.02,CA,1680109827
141,kharp,66.8014,65.8081,-19.3,92,10,4.59,RU,1680109827
142,baturaja,-4.1333,104.1667,22.58,93,98,0.54,ID,1680109828
143,dunedin,-45.8742,170.5036,7.11,83,58,0.45,NZ,1680109587
144,mogadishu,2.0371,45.3438,27.78,74,3,6.84,SO,1680109829
145,alofi,-19.0595,-169.9187,27.14,78,100,3.99,NU,1680109830
146,clovis,36.8252,-119.7029,12.25,74,40,6.17,US,1680109656
147,vila velha,-20.3297,-40.2925,28.97,70,20,5.14,BR,1680109693
148,coquimbo,-29.9533,-71.3436,19.85,77,20,6.17,CL,1680109831
149,vaini,-21.2,-175.2,22.09,100,20,0.51,TO,1680109831
150,dzhebariki-khaya,62.2167,135.8,-2.89,98,100,0.48,RU,1680109832
151,payyannur,12.1,75.2,25.17,79,4,2.65,IN,1680109832
152,waingapu,-9.6567,120.2641,26.01,85,100,1.28,ID,1680109833
153,sidrolandia,-20.9319,-54.9614,30.9,53,47,3.17,BR,1680109834
154,mount isa,-20.7333,139.5,25.87,53,40,3.09,AU,1680109834
155,honiara,-9.4333,159.95,25.52,89,100,2.07,SB,1680109836
156,mao,39.8885,4.2658,15.31,72,0,4.63,ES,1680109837
157,yeppoon,-23.1333,150.7333,21.88,87,15,2.15,AU,1680109837
158,nador,35.174,-2.9287,18.14,72,20,2.57,MA,1680109837
159,yellowknife,62.456,-114.3525,-11.91,72,79,3.58,CA,1680109569
160,chokurdakh,70.6333,147.9167,-33.38,100,64,2.82,RU,1680109838
161,poum,-20.2333,164.0167,25.93,77,95,1.47,NC,1680109839
162,port elizabeth,-33.918,25.5701,17.28,73,87,3.58,ZA,1680109839
163,saint-philippe,-21.3585,55.7679,26.77,81,38,4.29,RE,1680109839
164,cape town,-33.9258,18.4232,17.71,67,93,2.24,ZA,1680109835
165,aswan,24.0934,32.907,27.71,9,81,4.49,EG,1680109840
166,cruzilia,-21.8386,-44.8083,22.72,81,98,1.77,BR,1680109840
167,grindavik,63.8424,-22.4338,6.26,75,75,9.77,IS,1680109840
168,svetlaya,46.5389,138.3297,1.38,81,7,5.29,RU,1680109840
169,fort saint james,54.4333,-124.25,-0.96,89,100,1.18,CA,1680109841
170,iqaluit,63.7506,-68.5145,-17.39,77,83,11.18,CA,1680109841
171,zemio,5.0314,25.1361,27.11,49,50,1.12,CF,1680109841
172,airai,-8.9266,125.4092,14.9,88,100,0.8,TL,1680109842
173,bambous virieux,-20.3428,57.7575,25.68,75,86,6.59,MU,1680109842
174,sibolga,1.7427,98.7792,24.4,90,29,1.81,ID,1680109843
175,esmeraldas,-19.7625,-44.3139,28.48,54,100,2.04,BR,1680109843
176,preobrazheniye,42.9019,133.9064,2.77,92,2,2.78,RU,1680109844
177,makakilo city,21.3469,-158.0858,25.18,83,40,6.17,US,1680109844
178,goundam,16.4145,-3.6708,38.63,7,18,4.09,ML,1680109844
179,bud,39.447,-86.1758,12.08,51,79,6.12,US,1680109844
180,contai,21.7786,87.7536,26.14,87,4,4.32,IN,1680109844
181,qaanaaq,77.484,-69.3632,-21.98,71,92,2.41,GL,1680109845
182,guerrero negro,27.9769,-114.0611,16.88,55,0,6.58,MX,1680109845
183,barrow,71.2906,-156.7887,-12.99,78,100,4.63,US,1680109845
184,namanga,-2.5433,36.7905,23.21,59,100,4.99,KE,1680109845
185,kalmunai,7.4167,81.8167,25.46,77,62,1.74,LK,1680109846
186,jaroslaw,50.0162,22.6778,4.73,45,3,2.35,PL,1680109846
187,dalvik,65.9702,-18.5286,0.94,87,100,3.81,IS,1680109846
188,hithadhoo,-0.6,73.0833,28.36,74,34,2.64,MV,1680109846
189,mount gambier,-37.8333,140.7667,10.53,89,12,2.2,AU,1680109847
190,quatre cocos,-20.2078,57.7625,25.61,75,86,6.88,MU,1680109847
191,tema,5.667,-0.0166,30.04,66,100,6.57,GH,1680109847
192,grand gaube,-20.0064,57.6608,25.77,75,74,8.23,MU,1680109847
193,kasongo-lunda,-6.4667,16.8167,25.13,80,47,0.76,CD,1680109847
194,sorland,67.667,12.6934,-2.08,54,4,0.3,NO,1680109848
195,bolobo,-2.1667,16.2333,24.23,89,72,2.53,CD,1680109848
196,xai-xai,-25.0519,33.6442,24.92,63,5,4.73,MZ,1680109848
197,moerai,-22.4333,-151.3333,26.61,75,100,4.44,PF,1680109848
198,loding,67.3,14.75,-1.05,64,0,1.03,NO,1680109850
199,manta,-0.95,-80.7333,28.88,74,75,2.06,EC,1680109850
200,bonthe,7.5264,-12.505,29.32,66,63,4.83,SL,1680109850
201,flinders,-34.5833,150.8552,16.7,78,3,0.89,AU,1680109851
202,hobyo,5.3505,48.5268,28.11,70,15,4.27,SO,1680109851
203,adrar,20.5022,-10.0711,36.6,5,0,1.11,MR,1680109852
204,amahai,-3.3333,128.9167,24.88,86,100,1.6,ID,1680109852
205,taonan,45.3333,122.7833,8.94,38,83,1.97,CN,1680109853
206,iskateley,67.6803,53.1512,-16.24,95,30,2.47,RU,1680109853
207,muros,42.7762,-9.0603,17.83,84,63,8.25,ES,1680109715
208,sur,22.5667,59.5289,24.48,47,0,0.16,OM,1680109854
209,goure,13.9835,10.2704,32.05,8,32,3.66,NE,1680109854
210,auki,-8.7676,160.7034,25.29,88,100,1.6,SB,1680109854
211,yar-sale,66.8333,70.8333,-17.05,89,49,8.05,RU,1680109855
212,hasaki,35.7333,140.8333,11.79,78,100,4.17,JP,1680109855
213,saskylakh,71.9167,114.0833,-26.2,99,97,1.83,RU,1680109855
214,nanortalik,60.1432,-45.2371,-2.11,82,64,2.45,GL,1680109855
215,ust-nera,64.5667,143.2,-10.06,97,100,1.49,RU,1680109855
216,santo domingo,18.5001,-69.9886,31.8,61,40,5.14,DO,1680109774
217,zhigalovo,54.8097,105.1578,-1.32,97,98,1.35,RU,1680109856
218,carnarvon,-24.8667,113.6333,24.41,76,100,3.52,AU,1680109856
219,ahuas,15.4759,-84.3553,31.04,36,9,3.77,HN,1680109856
220,koshurnikovo,54.1667,93.3,0.24,99,85,1.07,RU,1680109856
221,ilebo,-4.3167,20.5833,22.81,90,91,0.73,CD,1680109856
222,khobi,42.3156,41.8987,7.01,92,100,4.02,GE,1680109857
223,lodja,-3.4833,23.4333,22.11,97,99,1.09,CD,1680109857
224,mujiayingzi,42.1167,118.7833,9.39,20,0,3.45,CN,1680109857
225,inhambane,-23.865,35.3833,22.73,73,0,4.73,MZ,1680109857
226,anshun,26.25,105.9333,9.41,89,100,1.54,CN,1680109857
227,baoma,31.4859,106.1128,13.25,82,66,1.23,CN,1680109857
228,conde,-7.2597,-34.9075,25.7,89,75,4.12,BR,1680109858
229,paris,48.8534,2.3488,21.25,50,0,5.66,FR,1680109676
230,laurel,39.0993,-76.8483,15.16,40,0,3.13,US,1680109647
231,lata,40.1629,-8.3327,21.62,45,79,4.97,PT,1680109858
232,mehamn,71.0357,27.8492,-2.05,100,100,6.17,NO,1680109858
233,tombouctou,20.0,-3.0,37.05,6,5,5.07,ML,1680109859
234,westport,41.1415,-73.3579,12.57,42,0,5.66,US,1680109809
235,ixtapa,20.7,-105.2,23.57,53,100,2.06,MX,1680109859
236,shimoda,34.6667,138.95,11.17,79,93,3.77,JP,1680109859
237,coromandel,-18.4733,-47.2003,28.25,44,44,2.97,BR,1680109860
238,ostrovnoy,68.0531,39.5131,-3.85,78,100,10.66,RU,1680109860
239,mandera,3.9366,41.867,32.6,44,22,1.57,KE,1680109860
240,erzin,36.9559,36.2,11.26,75,87,3.96,TR,1680109860
241,sioux lookout,50.1001,-91.917,-9.08,73,78,5.41,CA,1680109861
242,lebedinyy,58.5167,125.5167,-16.93,99,100,1.28,RU,1680109861
243,puerto ayacucho,5.6639,-67.6236,36.07,33,89,1.26,VE,1680109861
244,general jose eduvigis diaz,-27.1667,-58.4167,38.17,28,6,5.52,PY,1680109861
245,zabid,14.1951,43.3152,28.94,57,11,2.99,YE,1680109862
246,nishihara,26.1842,127.7558,18.81,88,75,6.69,JP,1680109862
247,nalut,30.3333,10.85,23.5,22,14,3.8,LY,1680109862
248,kurilsk,45.2333,147.8833,-0.52,82,6,3.69,RU,1680109863
249,waddan,29.1614,16.139,21.36,28,0,5.37,LY,1680109863
250,sawtell,-30.3833,153.1,21.01,78,40,2.57,AU,1680109863
251,zhigansk,66.7697,123.3711,-24.51,97,100,1.58,RU,1680109864
252,half moon bay,37.4636,-122.4286,10.33,90,100,5.14,US,1680109785
253,tacoronte,28.4769,-16.4102,28.18,13,0,3.09,ES,1680109864
254,ambon,-3.6954,128.1814,26.24,14,40,2.57,ID,1680109865
255,inirida,3.8653,-67.9239,29.57,71,100,1.11,CO,1680109865
256,kupang,-10.1667,123.5833,25.41,84,100,2.72,ID,1680109865
257,maniitsoq,65.4167,-52.9,-6.59,60,27,2.04,GL,1680109866
258,kakamega,0.2842,34.7523,17.11,91,44,0.39,KE,1680109866
259,saint george,37.1041,-113.5841,16.33,32,0,2.57,US,1680109684
260,korla,41.7597,86.1469,14.45,16,25,2.87,CN,1680109644
261,kundiawa,-6.0167,144.9667,17.41,97,100,0.12,PG,1680109867
262,zsombo,46.3257,19.9746,9.49,49,92,0.28,HU,1680109868
263,dalnerechensk,45.9339,133.7225,7.21,53,71,8.86,RU,1680109868
264,rawson,-43.3002,-65.1023,14.49,21,1,8.74,AR,1680109868
265,freeport,40.6576,-73.5832,12.48,36,0,3.58,US,1680109762
266,vite,17.2833,74.55,24.89,36,6,5.16,IN,1680109869
267,sistranda,63.7256,8.834,-1.02,62,7,6.94,NO,1680109869
268,naze,28.3667,129.4833,15.62,82,100,4.93,JP,1680109870
269,tateyama,34.9833,139.8667,12.95,79,98,2.99,JP,1680109870
270,port hawkesbury,45.6169,-61.3485,4.37,86,75,5.14,CA,1680109871
271,podor,16.6527,-14.9587,40.2,4,0,1.81,MR,1680109872
272,zhengjiatun,43.5064,123.5064,9.4,29,63,1.46,CN,1680109872
273,los llanos de aridane,28.6585,-17.9182,24.86,44,0,5.14,ES,1680109873
274,shenjiamen,29.9576,122.298,10.79,94,100,5.28,CN,1680109874
275,naryan-mar,67.6713,53.087,-16.15,95,30,2.47,RU,1680109875
276,kachiry,53.0675,76.1036,1.78,82,78,7.83,KZ,1680109876
277,camocim,-2.9022,-40.8411,27.61,81,47,4.09,BR,1680109876
278,clyde river,70.4692,-68.5914,-15.48,90,98,1.35,CA,1680109876
279,norman wells,65.282,-126.8329,-12.39,89,81,2.54,CA,1680109704
280,hirado,33.3597,129.5531,12.78,63,100,3.32,JP,1680109878
281,praya,14.9215,-23.5087,33.3,21,0,6.69,CV,1680109878
282,barra,-11.0894,-43.1417,30.18,45,55,2.3,BR,1680109875
283,bantry,51.6833,-9.45,10.44,91,81,6.51,IE,1680109879
284,alindao,5.0267,21.2088,27.87,58,93,2.07,CF,1680109879
285,san pedro,14.35,121.0167,26.86,75,20,3.09,PH,1680109618
286,havre-saint-pierre,50.2334,-63.5986,0.2,80,100,2.47,CA,1680109880
287,nioki,-2.7167,17.6833,24.4,89,98,1.08,CD,1680109880
288,cedar city,37.6775,-113.0619,10.54,28,0,11.32,US,1680109881
289,muravlenko,63.7898,74.523,-9.88,94,100,8.58,RU,1680109780
290,lagoa,39.05,-27.9833,15.33,77,91,12.7,PT,1680109882
291,kavaratti,10.5669,72.642,27.66,70,54,3.68,IN,1680109882
292,winneba,5.3511,-0.6231,29.24,72,42,6.25,GH,1680109883
293,puerto cabezas,14.0351,-83.3888,28.68,56,11,5.65,NI,1680109883
294,emba,48.8264,58.1442,10.98,67,5,9.24,KZ,1680109883
295,olafsvik,64.8945,-23.7142,0.74,92,100,7.99,IS,1680109883
296,black river,18.0264,-77.8487,29.57,53,0,4.78,JM,1680109884
297,souillac,-20.5167,57.5167,26.34,75,73,5.31,MU,1680109885
298,neyshabur,36.2133,58.7958,17.29,39,2,1.47,IR,1680109885
299,altoona,40.5187,-78.3947,11.24,39,11,2.24,US,1680109885
300,avera,33.194,-82.5271,17.73,37,95,4.42,US,1680109885
301,seydi,39.4816,62.9137,22.38,29,8,3.64,TM,1680109886
302,sao miguel do araguaia,-13.275,-50.1628,30.75,55,80,3.04,BR,1680109886
303,itaituba,-4.2761,-55.9836,27.06,93,82,1.4,BR,1680109887
304,asau,46.4333,26.4,1.51,67,100,1.14,RO,1680109887
305,vila do maio,15.1333,-23.2167,33.44,75,19,5.96,CV,1680109887
306,arraial do cabo,-22.9661,-42.0278,28.92,65,0,8.75,BR,1680109765
307,san miguel,13.4833,-88.1833,36.87,25,0,0.93,SV,1680109888
308,ankang,32.68,109.0172,13.06,62,39,1.28,CN,1680109888
309,newport,51.5877,-2.9984,13.03,93,100,5.07,GB,1680109889
310,robertsport,6.7533,-11.3686,28.12,74,84,3.52,LR,1680109889
311,xiuyan,40.2928,123.2744,5.66,82,0,1.3,CN,1680109890
312,camapua,-19.5314,-54.0439,29.91,62,19,2.32,BR,1680109890
313,san cristobal,7.7669,-72.225,22.1,69,100,2.57,VE,1680109642
314,broken hill,-31.95,141.4333,14.1,55,9,6.56,AU,1680109890
315,damietta,31.4165,31.8133,14.41,56,1,8.28,EG,1680109891
316,ankazoabo,-22.2833,44.5167,22.24,84,49,1.05,MG,1680109891
317,puerto cabello,10.4731,-68.0125,33.75,78,88,5.98,VE,1680109891
318,oussouye,12.485,-16.5469,30.32,31,1,5.75,SN,1680109891
319,bedesa,8.9,40.7833,18.35,84,82,1.54,ET,1680109892
320,meulaboh,4.1363,96.1285,25.69,85,43,1.19,ID,1680109892
321,pisco,-13.7,-76.2167,27.03,69,0,5.14,PE,1680109893
322,waris aliganj,25.0167,85.6333,27.48,19,43,1.78,IN,1680109893
323,kefamenanu,-9.4467,124.4781,21.4,95,100,1.11,ID,1680109894
324,carutapera,-1.195,-46.02,23.11,98,100,0.37,BR,1680109895
325,swan hill,-35.3378,143.5544,12.85,68,0,3.68,AU,1680109895
326,malkara,40.89,26.9011,4.42,45,95,1.93,TR,1680109897
327,zhongshu,24.5167,103.7667,11.0,96,29,1.9,CN,1680109897
328,monforte de lemos,42.5216,-7.5142,21.43,54,58,5.7,ES,1680109898
329,bandrele,-12.9067,45.1914,27.86,78,20,1.54,YT,1680109898
330,bourail,-21.5667,165.4833,23.11,90,89,1.49,NC,1680109899
331,havelock,34.8791,-76.9013,15.55,64,70,3.13,US,1680109899
332,pervomayskoye,43.919,46.7102,11.44,75,24,3.13,RU,1680109900
333,michigan city,41.7075,-86.895,4.58,95,100,3.09,US,1680109259
334,annau,37.8876,58.516,19.72,42,0,1.03,TM,1680109901
335,novaya igirma,57.1334,103.9112,4.16,94,100,4.56,RU,1680109902
336,sitka,57.0531,-135.33,2.94,70,0,2.06,US,1680109902
337,labytnangi,66.6572,66.4183,-18.18,84,6,4.66,RU,1680109902
338,polunochnoye,60.8697,60.4153,-9.94,91,7,1.98,RU,1680109902
339,huron,41.1501,-82.5499,10.38,50,100,9.41,US,1680109848
340,worthington,40.0931,-83.018,11.71,49,75,7.2,US,1680109903
341,tanete,-3.9443,119.7848,23.62,92,97,0.72,ID,1680109903
342,colon,9.3592,-79.9014,28.72,63,45,6.05,PA,1680109903
343,elat,29.5581,34.9482,23.91,25,4,11.32,IL,1680109904
344,coahuayana,18.7333,-103.6833,31.72,27,55,2.14,MX,1680109904
345,charyshskoye,51.3978,83.5598,4.97,75,6,1.83,RU,1680109904
346,revelstoke,50.9832,-118.2023,6.28,51,84,0.77,CA,1680109863
347,anadyr,64.75,177.4833,-6.72,92,75,1.79,RU,1680109904
348,margate,51.3813,1.3862,14.83,71,100,2.24,GB,1680109905
349,camacari,-12.6975,-38.3242,28.87,64,53,4.61,BR,1680109626
350,sabzevar,36.2126,57.6819,18.21,45,0,1.44,IR,1680109905
351,ajdabiya,30.7554,20.2263,17.8,38,2,6.9,LY,1680109905
352,veraval,20.9,70.3667,24.2,78,2,4.59,IN,1680109905
353,cao bang,22.6667,106.25,18.16,89,95,0.34,VN,1680109906
354,rio gallegos,-51.6226,-69.2181,7.03,45,75,8.23,AR,1680109906
355,olga,43.7444,135.2892,-1.54,94,2,2.22,RU,1680109906
356,pevek,69.7008,170.3133,-22.01,100,69,1.25,RU,1680109906
357,isangel,-19.55,169.2667,25.09,87,56,3.17,VU,1680109907
358,price,39.5994,-110.8107,6.18,45,40,1.54,US,1680109825
359,amapa,1.0,-52.0,28.19,74,76,2.76,BR,1680109907
360,george,-33.963,22.4617,15.43,68,98,3.33,ZA,1680109907
361,shubarshi,48.5872,57.1869,12.1,65,3,5.53,KZ,1680109907
362,riyadh,24.6877,46.7219,24.08,14,0,3.1,SA,1680109687
363,klaksvik,62.2266,-6.589,4.51,86,100,17.19,FO,1680109908
364,porterville,36.0652,-119.0168,12.62,71,0,3.09,US,1680109636
365,yerbogachen,61.2767,108.0108,1.51,98,100,7.09,RU,1680109908
366,nyurba,63.2842,118.3319,-20.8,99,81,1.73,RU,1680109908
367,ponta do sol,32.6667,-17.1,26.18,21,33,1.27,PT,1680109909
368,qom,34.6401,50.8764,20.7,26,0,1.13,IR,1680109907
369,antofagasta,-23.65,-70.4,23.6,68,7,3.84,CL,1680109909
370,mareeba,-17.0,145.4333,21.4,99,69,0.49,AU,1680109909
371,lieksa,63.3167,30.0167,-3.53,91,100,2.94,FI,1680109909
372,tandil,-37.3217,-59.1332,19.89,41,18,6.69,AR,1680109910
373,borgarnes,64.5383,-21.9206,2.34,91,100,4.64,IS,1680109910
374,ilulissat,69.2167,-51.1,-10.99,48,0,1.54,GL,1680109910
375,kinablangan,7.6947,126.5503,25.28,86,96,2.49,PH,1680109910
376,srednekolymsk,67.45,153.6833,-22.75,99,100,1.37,RU,1680109910
377,lufilufi,-13.8745,-171.5986,28.53,74,73,4.42,WS,1680109911
378,chapleau,47.8405,-83.4034,-7.65,91,100,6.01,CA,1680109911
379,vila franca do campo,37.7167,-25.4333,17.23,75,72,6.68,PT,1680109911
380,road town,18.4167,-64.6167,28.05,57,20,5.66,VG,1680109911
381,ambalema,4.7841,-74.7627,25.66,86,100,1.24,CO,1680109912
382,zomin,39.9606,68.3958,16.73,62,100,2.37,UZ,1680109912
383,vostok,46.4856,135.8833,-1.16,79,60,2.86,RU,1680109912
384,te anau,-45.4167,167.7167,1.12,95,30,0.77,NZ,1680109912
385,praia,14.9215,-23.5087,33.3,21,0,6.69,CV,1680109912
386,ust-ishim,57.6935,71.1665,-5.67,84,11,2.0,RU,1680109912
387,taoudenni,22.6783,-3.9836,38.05,5,28,6.27,ML,1680109913
388,wewak,-3.5534,143.6268,26.41,82,74,2.21,PG,1680109913
389,celestun,20.8667,-90.4,30.0,46,81,0.28,MX,1680109913
390,guarapari,-20.6667,-40.4975,28.38,62,75,3.78,BR,1680109913
391,kieta,-6.2167,155.6333,25.31,89,100,2.21,PG,1680109913
392,kindu,-2.95,25.95,26.13,72,92,0.21,CD,1680109913
393,cabedelo,-6.9811,-34.8339,26.37,70,28,4.93,BR,1680109914
394,kloulklubed,7.0419,134.2556,23.28,77,76,1.09,PW,1680109914
395,mama,58.3106,112.8986,-2.99,96,100,3.41,RU,1680109914
396,krasnaya polyana,56.242,51.1442,-0.71,86,82,5.14,RU,1680109914
397,petropavlovsk-kamchatskiy,53.0452,158.6483,-6.67,58,0,3.0,RU,1680109914
398,paamiut,61.994,-49.6678,-6.92,53,22,1.47,GL,1680109914
399,tonala,20.6167,-103.2333,24.62,29,20,0.0,MX,1680109915
400,rovaniemi,66.5,25.7167,-4.33,86,100,1.54,FI,1680109915
401,manggar,-2.8833,108.2667,26.37,80,94,2.43,ID,1680109915
402,tukrah,32.5341,20.5791,13.31,57,1,7.42,LY,1680109915
403,aljezur,37.3191,-8.8033,20.38,55,91,2.12,PT,1680109915
404,nome,64.5011,-165.4064,-6.05,100,100,11.32,US,1680109916
405,dongsheng,39.8161,109.9776,8.49,18,48,3.36,CN,1680109916
406,saint anthony,45.0205,-93.218,-4.08,43,0,4.12,US,1680109916
407,okhotsk,59.3833,143.3,-7.92,96,100,2.58,RU,1680109917
408,ketchikan,55.3422,-131.6461,5.26,60,20,4.63,US,1680109917
409,tzucacab,20.0667,-89.05,33.44,33,24,2.58,MX,1680109917
410,mindelo,16.8901,-24.9804,29.75,25,0,9.77,CV,1680109747
411,broome,42.2506,-75.833,10.56,45,40,4.12,US,1680109917
412,mnogovershinnyy,53.9353,139.9242,-3.58,84,87,1.75,RU,1680109917
413,tecoanapa,16.5167,-98.75,29.58,54,12,3.34,MX,1680109918
414,mataram,-8.5833,116.1167,26.45,84,100,1.13,ID,1680109851
415,loubomo,-4.1997,12.6739,23.0,92,65,3.48,CG,1680109918
416,oranjemund,-28.55,16.4333,16.57,73,0,10.82,,1680109919
417,binay,13.5028,122.5975,24.72,90,100,2.55,PH,1680109919
418,severo-kurilsk,50.6789,156.125,-1.58,58,1,3.11,RU,1680109919
419,aasiaat,68.7098,-52.8699,-19.7,87,28,2.39,GL,1680109920
420,namatanai,-3.6667,152.4333,25.72,84,99,1.55,PG,1680109920
421,harper,4.375,-7.7169,28.79,72,24,4.42,LR,1680109921
422,edd,13.9297,41.6925,27.07,67,61,2.11,ER,1680109922
423,sola,-13.8833,167.55,27.16,75,100,0.3,VU,1680109924
424,necochea,-38.5473,-58.7368,17.14,43,3,8.6,AR,1680109924
425,abha,18.2164,42.5053,18.14,52,0,3.09,SA,1680109925
426,chaman,30.9236,66.4512,13.48,68,83,2.6,PK,1680109926
427,alvaraes,-3.2208,-64.8042,29.93,84,96,2.16,BR,1680109869
428,koumac,-20.5667,164.2833,24.56,85,89,1.18,NC,1680109926
429,jingdezhen,29.2947,117.2079,10.78,95,100,0.52,CN,1680109927
430,horodyshche,49.2849,31.4451,0.39,76,100,5.73,UA,1680109927
431,chumphon,10.3333,98.8333,21.62,95,32,0.58,TH,1680109928
432,santa cruz,-17.8,-63.1667,30.7,70,75,9.77,BO,1680109928
433,el alto,-4.2714,-81.2147,27.81,74,96,5.57,PE,1680109928
434,aviles,43.5547,-5.9248,27.43,63,20,2.06,ES,1680109844
435,bathsheba,13.2167,-59.5167,29.34,54,20,9.26,BB,1680109929
436,vaitape,-16.5167,-151.75,27.79,74,86,4.26,PF,1680109930
437,villarrubia de los ojos,39.2209,-3.608,26.96,25,32,5.67,ES,1680109930
438,barreirinhas,-2.7469,-42.8264,29.67,67,64,3.42,BR,1680109931
439,beyneu,45.3167,55.2,18.08,40,0,3.8,KZ,1680109931
440,morondava,-20.2833,44.2833,26.0,71,60,2.95,MG,1680109931
441,boa vista,2.8197,-60.6733,31.99,43,75,5.66,BR,1680109850
442,gwadar,25.1216,62.3254,23.98,68,1,7.42,PK,1680109932
443,patacamaya,-17.2333,-67.9167,12.48,56,98,1.46,BO,1680109932
444,pacific grove,36.6177,-121.9166,11.48,81,75,5.36,US,1680109931
445,alta floresta,-9.8756,-56.0861,29.98,62,95,1.76,BR,1680109933
446,tairua,-37.0167,175.85,8.69,75,0,3.79,NZ,1680109934
447,vuktyl,63.8567,57.3094,-14.63,96,58,0.9,RU,1680109934
448,dzilam gonzalez,21.2833,-88.9333,32.87,35,28,2.1,MX,1680109934
449,tulun,54.5611,100.5792,1.51,89,85,2.15,RU,1680109936
450,sabang,5.8933,95.3214,28.46,70,42,1.89,ID,1680109936
451,faya,18.3851,42.4509,18.29,51,10,2.78,SA,1680109937
452,buala,-8.145,159.5921,26.61,82,100,2.36,SB,1680109937
453,havoysund,70.9963,24.6622,-0.87,78,100,8.84,NO,1680109938
454,hun,29.1268,15.9477,21.79,26,0,5.08,LY,1680109938
455,kattivakkam,13.2167,80.3167,29.05,82,3,6.58,IN,1680109939
456,cap malheureux,-19.9842,57.6142,25.82,75,80,8.01,MU,1680109940
457,san quintin,30.4833,-115.95,15.61,57,0,4.58,MX,1680109940
458,kingaroy,-26.5333,151.8333,18.46,98,99,1.58,AU,1680109940
459,letka,59.6011,49.4232,-2.92,84,49,3.8,RU,1680109941
460,quzhou,28.9594,118.8686,9.46,97,100,1.44,CN,1680109941
461,nerchinsk,51.9833,116.5833,-2.08,89,66,2.26,RU,1680109942
462,karatuzskoye,53.6072,92.8667,1.66,99,84,1.92,RU,1680109942
463,yantal,56.8471,105.2542,3.95,96,99,4.91,RU,1680109943
464,svetlyy,54.675,20.1347,3.03,69,81,4.16,RU,1680109944
465,dinajpur,25.6272,88.6386,25.45,60,18,3.33,BD,1680109944
466,santa maria,-29.6842,-53.8069,36.47,28,15,4.13,BR,1680109945
467,lucapa,-8.4192,20.7447,21.18,92,92,1.47,AO,1680109945
468,nouadhibou,20.931,-17.0347,22.99,68,0,9.26,MR,1680109945
469,constitucion,-35.3333,-72.4167,18.69,48,1,7.4,CL,1680109946
470,kendari,-3.945,122.4989,24.25,91,100,1.56,ID,1680109946
471,djougou,9.7085,1.666,37.17,13,94,2.8,BJ,1680109946
472,dixon,38.4455,-121.8233,9.43,96,100,2.06,US,1680109947
473,ayios vasilios,37.8,22.8,10.17,43,56,1.03,GR,1680109947
474,sao felix do xingu,-6.6447,-51.995,28.6,69,94,1.79,BR,1680109944
475,goderich,43.7501,-81.7165,1.06,82,100,12.27,CA,1680109947
476,bubaque,11.2833,-15.8333,25.7,66,52,5.8,GW,1680109948
477,sobolevo,54.4299,31.8996,-1.24,95,100,6.91,RU,1680109948
478,smithers,54.7804,-127.1743,2.27,76,96,0.28,CA,1680109816
479,alice springs,-23.7,133.8833,22.75,49,75,5.14,AU,1680109949
480,mahuva,21.0914,71.7622,25.93,64,2,4.94,IN,1680109949
481,kruisfontein,-34.0033,24.7314,16.05,72,98,6.99,ZA,1680109950
482,haimen,23.1935,116.6142,17.37,88,100,6.14,CN,1680109950
483,beloha,-25.1667,45.05,21.49,74,0,6.29,MG,1680109953
484,la raya de santa maria,8.1667,-80.8167,35.01,29,34,5.57,PA,1680109953
485,krutinka,56.0055,71.5113,-4.8,85,42,2.76,RU,1680109954
486,bilma,18.6853,12.9164,30.67,6,2,2.76,NE,1680109955
487,joshimath,30.5667,79.5667,10.78,85,100,1.58,IN,1680109955
488,mporokoso,-9.3727,30.125,17.7,96,100,0.9,ZM,1680109955
489,plouzane,48.3833,-4.6167,13.18,94,100,8.75,FR,1680109955
490,coleraine,55.1333,-6.6667,11.95,86,97,5.58,GB,1680109956
491,rio grande,-32.035,-52.0986,32.06,48,1,1.84,BR,1680109785
492,panguipulli,-39.6333,-72.3333,14.64,43,48,1.77,CL,1680109957
493,ucluelet,48.9329,-125.5528,12.27,57,6,1.02,CA,1680109957
494,lavrentiya,65.5833,-171.0,-7.48,95,100,6.29,RU,1680109958
495,matagami,49.7502,-77.6328,-8.94,79,100,4.23,CA,1680109959
496,port hedland,-20.3167,118.5667,29.03,79,98,4.63,AU,1680109960
497,nieuw amsterdam,5.8833,-55.0833,30.09,86,40,2.57,SR,1680109960
498,puerto lempira,15.2667,-83.7667,29.08,74,40,4.12,HN,1680109960
499,alpena,45.0617,-83.4327,-0.82,48,75,6.17,US,1680109961
500,arinos,-15.9169,-46.1056,33.58,24,96,2.58,BR,1680109961
501,la gomera,14.0833,-91.05,34.82,39,0,3.46,GT,1680109961
502,doka,13.5167,35.7667,31.74,9,100,3.49,SD,1680109961
503,plerin,48.5425,-2.7798,15.18,84,100,6.71,FR,1680109962
504,klyuchi,52.2667,79.1667,5.26,83,8,5.34,RU,1680109962
505,san isidro,-12.1167,-77.05,26.77,69,0,5.66,PE,1680109962
506,polson,47.6936,-114.1632,2.49,78,64,1.14,US,1680109963
507,bealanana,-14.55,48.7333,19.37,96,95,0.68,MG,1680109963
508,aksarka,66.5606,67.7975,-21.44,90,45,2.71,RU,1680109964
509,hami,42.8,93.45,15.96,10,1,3.35,CN,1680109964
510,galesburg,40.9478,-90.3712,4.99,60,0,5.14,US,1680109965
511,limoux,42.9167,2.1667,21.5,61,59,2.32,FR,1680109965
512,aguie,13.506,7.7786,34.04,7,78,3.92,NE,1680109965
513,changli,39.7042,119.1506,12.47,43,0,2.31,CN,1680109965
514,gidole,5.65,37.3667,16.29,70,57,1.01,ET,1680109966
515,pandan,14.0453,124.1694,25.27,88,100,2.67,PH,1680109966
516,susurluk,39.9136,28.1578,5.88,49,53,0.93,TR,1680109966
517,nicoya,10.1483,-85.452,33.47,38,8,6.48,CR,1680109763
518,buckeye,33.3703,-112.5838,22.86,24,0,2.06,US,1680109964
519,homer,59.6425,-151.5483,-0.53,93,100,0.0,US,1680109967
520,oparino,59.8518,48.2783,-2.87,84,64,4.01,RU,1680109967
521,pho chai,16.3283,103.7703,29.9,57,27,3.28,TH,1680109968
522,mandali,33.7499,45.5541,22.11,39,0,3.65,IQ,1680109968
523,san jeronimo,-11.9472,-75.2829,15.73,54,94,1.77,PE,1680109968
524,xuddur,4.1213,43.8894,31.93,33,37,5.08,SO,1680109968
525,la ronge,55.1001,-105.2842,-2.47,92,90,3.01,CA,1680109969
526,farah,32.5,62.5,18.27,52,65,2.05,AF,1680109969
527,colomi,-17.35,-65.8667,11.21,87,92,3.02,BO,1680109970
528,kaeo,-35.1,173.7833,7.4,91,20,2.84,NZ,1680109970
529,general roca,-39.0333,-67.5833,16.84,22,0,1.15,AR,1680109970
530,saldanha,-33.0117,17.9442,16.42,75,84,8.6,ZA,1680109539
531,fonte boa,-2.4959,-66.2662,27.92,74,98,0.63,BR,1680109789
532,portland,45.5234,-122.6762,9.34,90,100,1.54,US,1680109702
533,vanavara,60.34,102.2797,1.97,95,100,6.98,RU,1680109971
534,ortakoy,38.7373,34.0387,-2.86,89,100,4.44,TR,1680109971
535,maumere,-8.6199,122.2111,26.51,82,99,0.76,ID,1680109971
536,tiarei,-17.5333,-149.3333,27.01,78,58,3.51,PF,1680109971
537,cleethorpes,53.5605,-0.0323,15.14,88,75,6.69,GB,1680109972
538,port lincoln,-34.7333,135.8667,15.32,78,30,1.62,AU,1680109972
539,cap-aux-meules,47.3821,-61.8597,0.03,93,100,4.12,CA,1680109972
540,halifax,44.6453,-63.5724,8.03,62,56,1.34,CA,1680109755
541,touros,-5.1989,-35.4608,28.2,71,27,6.22,BR,1680109973
542,strezhevoy,60.7333,77.5889,-12.51,93,40,3.3,RU,1680109973
543,puerto escondido,15.85,-97.0667,30.46,70,0,4.12,MX,1680109973
544,bukama,-9.2,25.85,22.24,95,66,1.71,CD,1680109973
545,fort nelson,58.8053,-122.7002,-0.59,88,100,2.68,CA,1680109973
546,grindsted,55.754,8.9123,7.02,100,100,2.57,DK,1680109974
547,port blair,11.6667,92.75,29.02,74,40,1.03,IN,1680109974
548,diffa,13.3154,12.6113,31.94,9,96,3.15,NE,1680109974
549,coihaique,-45.5752,-72.0662,9.97,62,75,2.06,CL,1680109974
550,tautira,-17.7333,-149.15,27.24,77,56,3.37,PF,1680109974
551,nong kung si,16.65,103.3,28.09,59,58,3.39,TH,1680109974
552,plettenberg bay,-34.0527,23.3716,15.2,77,98,4.46,ZA,1680109974
553,goiatuba,-18.0125,-49.3547,28.04,58,15,3.27,BR,1680109975
554,tabuk,17.4189,121.4443,23.84,83,96,1.6,PH,1680109569
555,chicama,-7.8447,-79.1469,27.3,54,100,4.35,PE,1680109975
